address,latitude,longitude
,,
서울특별시 마포구 공덕동 256-7,37.54432947179856,126.95284750630455
서울특별시 마포구 양화로 25,37.549093603,126.912003430
서울특별시 마포구 양화로6길 57-13 기단,37.549266039,126.917749476
서울특별시 마포구 굴레방로9길 3,37.556767393,126.955517964
서울특별시 마포구 만리재옛길 50,37.548211436,126.957180295
서울특별시 마포구 망원로7길 17 지상빌딩,37.558247233,126.905334617
서울특별시 마포구 동교로23길 82,37.559107175,126.918360806
서울특별시 마포구 아현동 393-35,37.55152949664733,126.96228905499245
서울특별시 마포구 노고산동 31-123,37.554955523105136,126.93686062853862
서울특별시 마포구 포은로 82,37.554367327,126.905562013
서울특별시 마포구 월드컵로 212,37.566251594,126.901498209
서울특별시 마포구 와우산로3길 16 석진스토리,,
서울특별시 마포구 망원로8길 26,37.556320348,126.906026939
서울특별시 마포구 구수동 2-61,37.54726908973949,126.93374284154243
서울특별시 마포구 월드컵로 지하77 망원역,37.556058781,126.910032535
서울특별시 마포구 망원동 380-21,37.555397036393806,126.9088107937884
서울특별시 마포구 노고산동 40-26,37.555428444804676,126.9384384796773
서울특별시 마포구 도화동 169-3,37.541065481657185,126.95116846749548
서울특별시 마포구 토정로11길 54,37.546035723,126.923765776
서울특별시 마포구 포은로8길 16,37.556393382,126.905765398
서울특별시 마포구 아현동 774,37.552711922597084,126.95281002024198
서울특별시 마포구 동교로 60-1,37.553255015,126.909033947
서울특별시 마포구 숭문길 98 마포자이 더 센트리지,37.550278957,126.946615763
서울특별시 마포구 신촌로 지하270,37.558248776,126.927338172
서울특별시 마포구 도화동 48-11,37.5397298773137,126.94583225623585
서울특별시 마포구 만리재로1길 4-1,37.544576428,126.952368946
서울특별시 마포구 망원동 480-8,37.55854030114534,126.9057497360947
서울특별시 마포구 마포대로 247,37.555984961,126.957635526
서울특별시 마포구 홍익로3길 32,37.553087391,126.921605838
서울특별시 마포구 연남동 487-392,37.55896815306191,126.9177539395278
서울특별시 마포구 성암로13길 10,37.577599668,126.896482058
서울특별시 마포구 어울마당로 136,37.555990441,126.924958995
서울특별시 마포구 신수동 448-65,37.544684325845495,126.93574204596719
서울특별시 마포구 양화로6길 57-24 제이투21빌딩,37.549482504,126.918170226
서울특별시 마포구 신수동 91-621,37.54737681224563,126.93545478524686
서울특별시 마포구 동교로 226,37.560030358,126.924030003
서울특별시 마포구 월드컵로 지하 77,37.566251594,126.901498209
서울특별시 마포구 동교로46길 42,37.562090680,126.926807388
서울특별시 마포구 토정로31길 63 이원빌딩,37.543455469,126.944187516
서울특별시 서대문구 충정로7길 9 미동아파트,37.563235622,126.964079660
서울특별시 마포구 매봉산로2안길 12-9,37.578025376,126.894207530
서울특별시 마포구 망원동 403-6,37.55493358059027,126.90625612763974
서울특별시 마포구 와우산로15길 40,37.549009928,126.921175493
서울특별시 마포구 삼개로 27-1,37.537803598,126.947518599
서울특별시 마포구 도화동 290-16,37.53876606957674,126.9463898936103
서울특별시 마포구 월드컵북로 216 성산2차 e편한세상,37.569865138,126.905067782
서울특별시 마포구 상수동 317-20,37.54786139022657,126.92060373753165
서울특별시 마포구 서강로 51,37.547752834,126.931150254
서울특별시 마포구 양화로 161,37.556948492,126.923333458
서울특별시 마포구 양화로 지하 55,37.552699027,126.918706804
서울특별시 마포구 월드컵로 149,37.560955491,126.905308039
서울특별시 마포구 마포대로 33 마포 한화 오벨리스크,37.540008917,126.945470732
서울특별시 마포구 독막로 지하165 광흥창역,37.547483481,126.931948671
서울특별시 마포구 어울마당로 54 대호빌딩,37.549794779,126.921201088
서울특별시 마포구 신수로 25-46,37.544327191,126.932658473
서울특별시 마포구 환일길 50,37.553687833,126.960934600
서울특별시 마포구 어울마당로 80,37.552120132,126.921687589
서울특별시 마포구 동교로 210,37.558630508,126.923789890
서울특별시 마포구 동교동 192-44,37.55795735243552,126.92435842903984
서울특별시 마포구 창전동 236,37.54711325447522,126.93142898920192
서울특별시 마포구 중동 59-2,37.57174789268012,126.90373269046921
서울특별시 마포구 만리재옛길 13,37.546196341,126.953630585
서울특별시 마포구 마포대로 42-1,37.539910880,126.946723435
서울특별시 마포구 합정동 50-16,37.54533978580746,126.91732646080101
서울특별시 마포구 월드컵북로 402 케이지아이티센터,37.580189085,126.888936099
서울특별시 마포구 성산동 150-6,37.56929452464445,126.9059441300411
서울특별시 마포구 창전동 116,37.548487683907396,126.93170058485447
서울특별시 마포구 창전동 252,37.54766097830558,126.93107421193761
"서울특별시 마포구 월드컵북로54길 25 상암DMC푸르지오시티, S-City",37.581931087,126.889581936
서울특별시 마포구 용강동 38-3,37.540758048730055,126.94455574546913
서울특별시 마포구 노고산동 33-24,37.554746301568656,126.9412957415093
서울특별시 마포구 월드컵로 146-1,37.561022134,126.905835404
서울특별시 마포구 대흥동 401-1,37.54565680332901,126.94124318311911
서울특별시 마포구 대흥동 2-57,37.55552141913568,126.94650953118938
서울특별시 마포구 양화로6길 76,37.548378668,126.918241290
서울특별시 마포구 대흥동 2-59,37.55640983438914,126.94621078204563
서울특별시 마포구 와우산로 57,37.549652060,126.922887042
서울특별시 마포구 월드컵북로5나길 18 서교동 대우미래사랑,37.557283383,126.916793863
서울특별시 마포구 월드컵로 192,37.564422377,126.902951994
서울특별시 마포구 신촌로 252,37.557018821,126.953746094
서울특별시 마포구 상암산로1길 69 상암프라자,37.580145993,126.883461346
서울특별시 마포구 와우산로21길 1-1,37.552562361,126.923787954
서울특별시 마포구 대흥로 지하85 대흥역,37.547677849,126.942446973
서울특별시 마포구 동교로30길 3,37.560651908,126.924640539
서울특별시 마포구 월드컵북로 502-36,37.586727151,126.882816299
서울특별시 마포구 도화4길 39,37.540308644,126.951794783
서울특별시 마포구 공덕동 11-244,37.54897827410849,126.96312013029014
서울특별시 마포구 월드컵로31길 7,37.561658619,126.904277363
서울특별시 마포구 상암동 17-9,37.576225460460726,126.89581187809051
서울특별시 마포구 동교동 192-8,37.55494884582574,126.93123639777953
서울특별시 마포구 월드컵북로 162,37.566889323,126.910533623
서울특별시 마포구 월드컵로 205,37.565029429,126.901572328
