address,latitude,longitude
서울특별시 중랑구 상봉중앙로8다길 3-12,37.600645222,127.091277741
서울특별시 중랑구 용마산로 482 플러스빌,37.594039152,127.099643132
서울특별시 중랑구 면목동 3-4,37.589209277171946,127.0988977020559
서울특별시 중랑구 면목로 319 삼성종합프라자,37.580419523,127.088192557
서울특별시 중랑구 망우로 212,37.593729397,127.076205147
서울특별시 중랑구 망우동 495-2,37.59764212864289,127.09481493522449
서울특별시 중랑구 망우로 198-14,37.592867899,127.075058395
서울특별시 중랑구 면목로49길 33 영문웅변,37.582717886,127.086655116
서울특별시 중랑구 망우로 206,37.593591323,127.075795740
서울특별시 중랑구 면목동 294-19,37.592196465325955,127.07577595038066
서울특별시 중랑구 겸재로9길 40 대원부동산,37.588146591,127.078382396
서울특별시 중랑구 망우로55길 8,37.598616054,127.093062448
서울특별시 중랑구 동일로 919,37.612469709,127.077066096
서울특별시 중랑구 망우로 460-91,37.600209257,127.103043057
서울특별시 중랑구 망우동 537-24,37.599415837009275,127.0955993074192
서울특별시 중랑구 신내로16길 33 신내동 의료안심주택,37.614168134,127.097619602
서울특별시 중랑구 신내로10길 26,37.604316525,127.097077033
서울특별시 중랑구 봉화산로 39-1,37.601768218,127.078766127
서울특별시 중랑구 봉화산로 179 중랑구청,37.606512215,127.092603322
서울특별시 중랑구 봉화산로 188 신현초등학교,37.605810683,127.093218645
서울특별시 중랑구 신내로 110,37.608432116,127.096348453
서울특별시 중랑구 묵동 58-8,37.615654847771694,127.07978711173801
서울특별시 중랑구 면목로92다길 2,37.595323530,127.087527358
서울특별시 중랑구 신내로 56-1,37.604166319,127.095699364
서울특별시 중랑구 상봉중앙로5길 3,37.600272492,127.087231015
서울특별시 중랑구 면목로 484,37.595181835,127.086073765
서울특별시 중랑구 망우동 537-2,37.60145393174689,127.1082229277483
서울특별시 중랑구 망우로 297 상봉역,37.596709313,127.085741819
서울특별시 중랑구 상봉중앙로8나길 47,37.600724425,127.091259396
서울특별시 중랑구 면목동 636-17,37.580608941267045,127.08749620784855
서울특별시 중랑구 면목동 698-1,37.57438066022958,127.08094598327799
서울특별시 중랑구 용마공원로 14,37.594456869,127.100945153
서울특별시 중랑구 봉화산로 54,37.601492085,127.080376142
서울특별시 중랑구 봉화산로 130,37.603190395,127.088468072
서울특별시 중랑구 겸재로 215,37.589461660,127.091467782
서울특별시 중랑구 상봉동 499-1,37.60287967772405,127.09041129822285
서울특별시 중랑구 겸재로 215 (면목동),37.589461660,127.091467782
서울특별시 중랑구 망우로 322,37.596648275,127.088173791
서울특별시 중랑구 상봉로 51,37.590508113,127.093335227
서울특별시 중랑구 사가정로50길 101-91,37.576681331,127.084069432
서울특별시 중랑구 망우동 534-64,37.59855090479725,127.09478402023615
서울특별시 중랑구 망우동 537-6,37.60177754591034,127.10328977757824
서울특별시 중랑구 중랑역로 9,37.594826189,127.075736602
서울특별시 중랑구 중랑역로 53,37.598573682,127.077199417
서울특별시 중랑구 면목로 491 주함해븐타워,37.595782490,127.085371769
서울특별시 중랑구 면목동 294-5,37.58918037554231,127.07971749250923
서울특별시 중랑구 면목로 345,37.582789493,127.088397257
서울특별시 중랑구 면목동 481-6,37.588392292858515,127.08728294147394
서울특별시 중랑구 면목동 49-5,37.585602174180934,127.0947385572917
서울특별시 중랑구 사가정로46길 55,37.578725637,127.083639637
서울특별시 중랑구 면목동 49-25,37.586436363407486,127.09564440976466
서울특별시 중랑구 면목로74길 45,37.589851313,127.089889271
서울특별시 중랑구 중화동 65-8,37.60408051344098,127.0771888424956
서울특별시 중랑구 용마공원로 24-1,37.593527647,127.101303212
서울특별시 중랑구 상봉로11길 55,37.589599390,127.090528898
서울특별시 중랑구 신내동 561,37.60489210599016,127.09540576944086
서울특별시 중랑구 면목동 52-7,37.58741561982512,127.09654195388505
서울특별시 중랑구 망우동 542-10,37.59816402275851,127.09827999336525
서울특별시 중랑구 면목동 482-10,37.588204270397796,127.08683712051581
서울특별시 중랑구 망우로30길 55,37.591041361,127.075502621
서울특별시 중랑구 신내로17길 112,37.617061351,127.090483649
서울특별시 중랑구 용마산로 389 석주빌딩,37.586474653,127.094934008
서울특별시 중랑구 망우로 268,37.595277460,127.082390431
서울특별시 중랑구 망우동 594-5,37.61068600708125,127.10452620469977
서울특별시 중랑구 봉우재로71길 53 망우식품,37.596654525,127.097039750
서울특별시 중랑구 동일로 지하797,37.585772241,127.079496624
서울특별시 중랑구 신내로 211 금강리빙스텔,37.616431175,127.092621776
서울특별시 중랑구 망우동 241-16,37.60574057722309,127.1082566541381
서울특별시 중랑구 상봉중앙로8나길 28,37.601539928,127.090140621
서울특별시 중랑구 면목동 49-12,37.58917261127624,127.09381936190609
서울특별시 중랑구 중랑역로 54 농협,37.598322071,127.077499695
서울특별시 중랑구 묵동 191-4,37.61679429818172,127.08047823402318
서울특별시 중랑구 중화동 110-12,37.6016781087946,127.08212163179502
서울특별시 중랑구 동일로99길 26,37.587956971,127.078391070
서울특별시 중랑구 동일로149길 14,37.606749826,127.077560126
서울특별시 중랑구 양원역로 20,37.602147577,127.108172492
서울특별시 중랑구 용마산로100길 7,37.591608655,127.098696065
서울특별시 중랑구 신내로 51,37.603877252,127.095189195
서울특별시 중랑구 사가정로 390-91,37.580626165,127.087851406
