address,latitude,longitude
"서울 중구 다산로지하 260, 지하 (흥인동 162-1, 신동역 6호선)",37.56756902,127.01611361
"서울 중구 다산로지하 115, 지하층 (신당동 369-2, 약수역 6호선)",37.55505047,127.01035898
"서울 중구 청구로116, 1층(신당동 304-499)",37.5621612,127.01053658
"서울 중구 마른내로156, 1층 (광희동1가 237, 광희빌딩 별관)",37.56451396,127.00529858
"서울 중구 삼일대로340, (1층2-1호) (저동1가 1-2, 남대문세무서)",37.56502641,126.98819951
서울 중구 마른내로28 (초동 72-10),37.56434703,126.99093664
"서울 중구 퇴계로43 (남창동 47-14, 남대문지하철상가1층1호)",37.55814846,126.97739298
"서울 중구 남대문로30, 2층(남창동 1-1)",37.56062133,126.97889852
서울 중구 소월로10 (남대문로5가 120),37.55852799,126.97544103
"서울 중구 충무로24, 101호, 102호 (인현동1가 158, 남산센트럴뷰스위트)",37.56326711,126.99320371
서울 중구 퇴계로18길16-1 (남산동1가 6-5),37.56015411,126.98532256
서울 중구 소공로6길22 (남산동1가 18-2),37.55844297,126.98437239
"서울 중구 필동로52, 1층 (필동2가 119-4)",37.55702495,126.99556265
"서울 중구 새문안로16, 지하2층 (충정로1가 75-1)",37.56636877,126.96839476
"서울 중구 퇴계로342, 1층 (광희동2가 176)",37.56432412,127.00951187
"서울 중구 퇴계로88길48, 1층 (신당동 145-6)",37.56366484,127.02012668
"서울 중구 을지로지하 42, 202동 111호 (을지로1가 100-1, 을지로입구역 2호선)",37.56612668,126.9820268
"서울 중구 마른내로51, 중구인현 (인현동1가 101-1, 인더라인)",37.56452366,126.99368485
"서울 중구 난계로173, S-4, S-5호 (황학동 787)",37.56694352,127.02325324
"서울 중구 다동길43, 1층 (다동 70, 한외빌딩)",37.56819532,126.98159114
"서울 중구 서소문로9길28, B114호 (순화동 217, 덕수궁롯데캐슬)",37.56370703,126.97003879
서울 중구 세종대로89 (태평로2가 362-1),37.56446577,126.976469
"서울 중구 동호로25길15, B1(장충동2가 193-87)",37.55863052,127.00213973
"서울 중구 을지로281, 디자인장터 C1호 (을지로7가 2-1)",37.56750019,127.01003581
"서울 중구 퇴계로73가길34, 1층 2층 1호 (신당동 251-77)",37.56688923,127.01347375
"서울 중구 을지로254, 101호 (을지로6가 23, 타임캐슬오피스텔)",37.56598254,127.00635441
"서울 중구 서애로1길35, 1층(묵정동 29-23, 동국빌딩)",37.56103634,127.00001367
"서울 중구 장충단로275, 5층 아가방 (을지로6가 18-12)",37.56889522,127.00877215
"서울 중구 서소문로38, 111호(중림동 500, 디오센터)",37.56039371,126.96620211
서울 중구 순화동195-1번지 포스코더샵빌딩 1층 112호,37.56013936,126.97215921
서울 중구 명동8가길22 (충무로2가 63-5),37.56158528,126.98619734
"서울 중구 남대문로9길40, 111호 (다동 155, YG타워)",37.5670067,126.98063383
"서울 중구 새문안로22, 1층 (충정로1가 68)",37.56711891,126.96865609
"서울 중구 서소문로11길50, B5호(서소문동 39-1)",37.56481477,126.97307975
"서울 중구 퇴계로52, 1층 (회현동1가 194-15)",37.55846555,126.97863367
서울 중구 남대문로1길26(북창동 98),37.56218622,126.9775189
"서울 중구 세종대로18길2, 1층 (태평로2가 56-1)",37.56375179,126.9772598
"서울 중구 충무로3, 빌리브아카이브남산 109-1호, 109-2호 (필동1가 43-1)",37.5614977,126.99280872
"서울 중구 명동8나길10, 1층 본관A-104(충무로1가 23-1, 사보이호텔)",37.56169487,126.98427165
서울 중구 서소문로109(서소문동 53-6),37.56305022,126.97325112
"서울 중구 한강대로416, 지하1층(남대문로5가 541, 서울스퀘어)",37.55560919,126.97343245
"서울 중구 충무로2길9, 104호,105호,106호 (충무로4가)",37.56262258,126.9936991
"서울 중구 마른내로79, 세운푸르지오헤리시티 제1층 제105호, 제106-2호 (인현동2가 151-1)",37.56441386,126.9966633
"서울 중구 을지로15길31, 제1층 제101호, 제102호 (입정동 140-4)",37.56809952,126.99353486
"서울 중구 을지로15길32, 힐스테이트세운센트럴2단지 제1층 제113호, 제115-1호 (입정동 2-4)",37.56805097,126.99418075
"서울 중구 세종대로21길67, 1층, 위드24 (태평로1가 72-2)",37.56925275,126.97571298
"서울 중구 남대문로7길11-10, 101호 (소공동 24, 삼진빌딩)",37.56373874,126.98096134
"서울 중구 충무로2길9, 112, 113호 일부 (충무로4가 12-1)",37.56271519,126.99399215
"서울 중구 남대문로7 (남대문로4가 17-10, 흥국생명남대문2호별관1층)",37.56083529,126.97655263
"서울 중구 소파로2길10, A동 5층 (예장동 8-3, 강의)",37.55785697,126.98748155
"서울 중구 동호로5길20, 1층 (신당동 373-114, 프레지덴트빌딩)",37.55182915,127.01196337
"서울 중구 다산로31길43, 1층 (신당동 236-34)",37.56235504,127.01216395
"서울 중구 퇴계로90길74, 상가 1층 201,202호 (신당동 851, 래미안신당하이베르아파트)",37.56169862,127.02097871
"서울 중구 청구로1길23, 2동 B 101호(청구동 843, 삼성아파트)",37.55891307,127.0186496
"서울 중구 퇴계로448, 1층 상가 101,102호 (신당동 140-23)",37.56541221,127.02113386
"서울 중구 동호로11라길16, 1층 (신당동 432-1079)",37.55205829,127.00598475
"서울 중구 퇴계로457, 102호 (황학동 2484, 올리브2오피스텔)",37.56561369,127.02261408
"서울 중구 동호로10길21, 1층 (신당동 348-135)",37.5549543,127.0117863
"서울 중구 왕십리로407, 지하1층 (신당동 855, 신당파인힐하나유보라)",37.56489927,127.02447979
"서울 중구 청구로17길74, 1층 (신당동 377-16, 호림빌딩)",37.55805725,127.01111149
"서울 중구 다산로46길17, 1동 112호 (흥인동 13-1, 두산위브더제니스)",37.56697883,127.0166534
서울 중구 다산로156(청구동 340-77),37.55757291,127.01245345
서울 중구 퇴계로86길6(신당5동 130-33),37.56525509,127.01957383
"서울 중구 다산로36길14, 1층 (신당동 291-18)",37.56251311,127.01598769
"서울 중구 다산로36길97, 1층 (신당동 41-51)",37.56016409,127.01956132
서울 중구 퇴계로290 (쌍림동 148-2),37.56331231,127.00384307
"서울 중구 장충단로198, 1층 우측 (장충동1가 31-7)",37.56222951,127.00686833
"서울 중구 서소문로124, 지하1층 B101호 (서소문동 143)",37.56310337,126.97521991
"서울 중구 다산로75, 3층 303호(다산동 353-24)",37.55126978,127.00757964
서울 중구 동호로196(다산동 381-8),37.55563608,127.01035123
서울 중구 동호로11길7 (신당동 361-44),37.55462437,127.01004771
"서울 중구 후암로98, B116호 (남대문로5가 631, LG서울역빌딩)",37.55386347,126.9747353
"서울 중구 통일로10, B1층(남대문로5가 84-11, 세브란스빌딩)",37.55711768,126.97386448
서울 중구 을지로9길8 (을지로2가 101-28),37.56660558,126.98847246
"서울 중구 충무로55-1, 1층 (을지로3가 295-9)",37.56614403,126.99245186
서울 중구 수표로43-2(저동2가 76),37.56517464,126.98972562
"서울 중구 을지로170, B1층, B117호 (을지로4가 261-4)",37.56621029,126.99705802
"서울 중구 동호로352, 1층 (을지로5가 275-5)",37.56566351,127.00271377
"서울 중구 을지로230, 1층 (을지로5가 76-2)",37.5665628,127.00357339
서울 중구 을지로4가261-4번지,37.56612317,126.9974101
"서울 중구 삼일대로363, 102호 (장교동 1, 장교빌딩)",37.56740041,126.98659396
서울 중구 동호로228-1(다산동 416),37.55812514,127.0084621
서울 중구 동호로30길43 (장충동2가 42-2),37.56120769,127.00536518
"서울 중구 세종대로136, 지하2층 B201호 (태평로1가 84)",37.56840032,126.97820371
"서울 중구 다산로32, 6상가동 1층 108호 (신당동 844, 남산타운)",37.54664158,127.00795787
"서울 중구 만리재로193 (만리동1가 62-7, 서울역디오빌)",37.55500524,126.96720461
"서울 중구 다산로35길26, 1층 (무학동 70-2)",37.56404089,127.01442817
"서울 중구 세종대로14, 지하3층 B306호 (남대문로5가 831)",37.55786989,126.97436349
"서울 중구 세종대로7길43, 1층 (순화동 66, 순화빌딩)",37.5610592,126.97224844
"서울 중구 동호로8길7, 1층, 지하1층 (신당동 373-9)",37.55401854,127.01194579
"서울 중구 중림로42-1, 1층(중림동 328-1)",37.55750637,126.96780391
"서울 중구 다산로32길15, 1층 101호 (신당동 290-96, 청산빌딩)",37.56112995,127.01543994
"서울 중구 다산로32, 4상가 지하1층 (신당동)",37.54953725,127.01049978
서울 중구 퇴계로180(필동1가 21-11),37.56083946,126.99169703
"서울 중구 청파로454, 102호,103호 (중림동 363)",37.5599369,126.968574
"서울 중구 난계로17길22, 지하층 (황학동 1636)",37.56949312,127.0221219
"서울 중구 다산로47길15, 1층(흥인동 154, 상유산업빌딩)",37.56654227,127.01508571
"서울 중구 청계천로318, 가동 1층 53호 (신당동 217-92, 동평화의류상가)",37.56945198,127.01392671
"서울 중구 퇴계로192, 101호(필동1가 35-1)",37.56077946,126.99311268
"서울 중구 수표로14 (충무로3가 59-22, 영한빌딩)",37.56237078,126.99058977
서울 중구 서소문로8(중림동 398-1),37.55897729,126.96291669
"서울 중구 통일로92, 지하1층 (순화동 1-170, 에이스타워)",37.56358309,126.96925947
"서울 중구 필동로14, 101호(필동2가 19-11, 대평빌딩)",37.56037052,126.99587994
"서울 중구 청파로463, 2층 (중림동 441)",37.5601956,126.96724616
"서울 중구 청계천로400, 1229호(황학동 2545, 롯데캐슬)",37.57094533,127.02121993
"서울 중구 소공로35, 상가 106,107호 (회현동1가 208, 남산롯데캐슬아이리스)",37.55827816,126.98197513
"서울 중구 퇴계로4길38, 1층 (회현동1가 165-3)",37.55743456,126.97923629
